[{"total":163,"address":"臺中市大里區永隆路與永隆七街口","lng":120.676064,"name":"大里-停六停車場","available":69,"updateTime":"2020-11-12 15:31:44.0","lat":24.1138935},{"total":960,"address":"臺中市大里區勝利二路1號","lng":120.683762,"name":"大里運動公園地下停車場","available":114,"updateTime":"2020-11-12 15:31:44.0","lat":24.1004581},{"total":22,"address":"臺中市大里區德芳南路與現岱路口","lng":120.689339,"name":"大里區廣兼停五停車場","available":22,"updateTime":"2020-11-12 15:31:44.0","lat":24.1009464},{"total":272,"address":"臺中市中區吉祥街20號","lng":120.6793,"name":"大誠立體停車場 (柳川舊河道)","available":79,"updateTime":"2020-11-12 15:31:44.0","lat":24.14469},{"total":58,"address":"臺中市北區東光五街、東光路(肉品市場邊)","lng":120.69912,"name":"(停12)建成停車場","available":19,"updateTime":"2020-11-12 15:31:44.0","lat":24.15515},{"total":32,"address":"臺中市北區三民路與崇德路交叉口","lng":120.686157,"name":"(停169)金龍停車場","available":4,"updateTime":"2020-11-12 15:31:44.0","lat":24.1552315},{"total":29,"address":"臺中市北區太原四街、太原八街","lng":120.669418,"name":"(停48)中德停車場","available":4,"updateTime":"2020-11-12 15:31:44.0","lat":24.1658344},{"total":447,"address":"臺中市北區公園路8之1號","lng":120.682953,"name":"(停54)臺中公園地下停車場","available":143,"updateTime":"2020-11-12 15:31:44.0","lat":24.14544},{"total":21,"address":"臺中市北區陜西五街、武昌路口","lng":120.668205,"name":"(停67)武昌停車場","available":4,"updateTime":"2020-11-12 15:31:44.0","lat":24.1694374},{"total":178,"address":"臺中市北區五義街、五順街","lng":120.683365,"name":"(細停163)中賓停車場","available":0,"updateTime":"2020-11-12 15:31:44.0","lat":24.1549778},{"total":45,"address":"臺中市北區興進路、雙十路(育仁國小附近)","lng":120.691612,"name":"金華停車場","available":8,"updateTime":"2020-11-12 15:31:44.0","lat":24.1557026},{"total":141,"address":"臺中市北屯區崇德十二路、昌平東二路口","lng":120.687675,"name":"(停22)仁德停車場","available":123,"updateTime":"2020-11-12 15:31:44.0","lat":24.1901436},{"total":23,"address":"臺中市北屯區雷中街47巷、雷中街59巷7弄","lng":120.668877,"name":"雷中停車場","available":8,"updateTime":"2020-11-12 15:31:44.0","lat":24.1826935},{"total":63,"address":"臺中市北屯區北屯路、北平路四段口","lng":120.696373,"name":"三光停車場","available":20,"updateTime":"2020-11-12 15:31:44.0","lat":24.1686},{"total":273,"address":"臺中市北屯區旅順路二段、熱河路二段路口","lng":120.687263,"name":"(公27)民俗公園地下停車場","available":55,"updateTime":"2020-11-12 15:31:44.0","lat":24.1744041},{"total":472,"address":"臺中市北屯區梅川東路五段、崇德六路","lng":120.683128,"name":"松竹停車場(廣兼停44)","available":241,"updateTime":"2020-11-12 15:31:44.0","lat":24.18031},{"total":77,"address":"臺中市后里區三光路","lng":120.711792,"name":"后里-三光路小型停車場(停5)","available":34,"updateTime":"2020-11-12 15:31:44.0","lat":24.3075714},{"total":59,"address":"臺中市后里區復興街","lng":120.71994,"name":"后里-復興街旱溝加蓋停車場(停7)","available":10,"updateTime":"2020-11-12 15:31:44.0","lat":24.3074436},{"total":386,"address":"臺中市西區府後街1之8號","lng":120.675079,"name":"(公43)府後街地下停車場","available":32,"updateTime":"2020-11-12 15:31:44.0","lat":24.13624},{"total":72,"address":"臺中市西區府後街、貴和街","lng":120.673569,"name":"(停158)林森停車場","available":11,"updateTime":"2020-11-12 15:31:44.0","lat":24.13458},{"total":17,"address":"臺中市西區貴和街、大全街","lng":120.67067,"name":"(停157)貴和停車場","available":0,"updateTime":"2020-11-12 15:31:44.0","lat":24.1363163},{"total":11,"address":"臺中市西區四維街、大明街","lng":120.673485,"name":"(停145 )廣民停車場","available":2,"updateTime":"2020-11-12 15:31:44.0","lat":24.1390419},{"total":25,"address":"臺中市西區民權路、博館二街","lng":120.670258,"name":"民龍停車場","available":3,"updateTime":"2020-11-12 15:31:44.0","lat":24.15257},{"total":8,"address":"臺中市西區中華路、柳川西路","lng":120.672638,"name":"(停55)平和停車場","available":0,"updateTime":"2020-11-12 15:31:44.0","lat":24.14095},{"total":101,"address":"臺中市西區美村路、存中街口","lng":120.661514,"name":"(停75)美村停車場","available":32,"updateTime":"2020-11-12 15:31:44.0","lat":24.14143},{"total":93,"address":"臺中市西區忠明南路、存中街、華美街口","lng":120.657516,"name":"(停76)土庫停車場","available":13,"updateTime":"2020-11-12 15:31:44.0","lat":24.141407},{"total":61,"address":"臺中市西區美村路與南屯路交叉路口","lng":120.661804,"name":"(停78)吉龍停車場","available":0,"updateTime":"2020-11-12 15:31:44.0","lat":24.1324234},{"total":70,"address":"臺中市西區美村路1段52巷與中美街口","lng":120.66008,"name":"(公78)忠明公園地下停車場","available":0,"updateTime":"2020-11-12 15:31:44.0","lat":24.15382},{"total":96,"address":"臺中市西區向上路1段577號地下一樓","lng":120.650017,"name":"(公43)萬壽棒球場附屬地下停車場","available":18,"updateTime":"2020-11-12 15:31:44.0","lat":24.14585},{"total":18,"address":"臺中市西區林森路、自由路","lng":120.67511,"name":"廣八廣場停車場","available":0,"updateTime":"2020-11-12 15:31:44.0","lat":24.133028},{"total":98,"address":"臺中市西區中華路一之120號地下2、3樓、四維街","lng":120.671707,"name":"柳川地下停車場(廣十)","available":27,"updateTime":"2020-11-12 15:31:44.0","lat":24.1409},{"total":198,"address":"臺中市西屯區台灣大道、惠來路","lng":120.6423,"name":"惠新停車場","available":13,"updateTime":"2020-11-12 15:31:44.0","lat":24.16451},{"total":26,"address":"臺中市西屯區福科路、黎明路三段交叉口","lng":120.637871,"name":"(停107)同心停車場","available":4,"updateTime":"2020-11-12 15:31:44.0","lat":24.17893},{"total":37,"address":"臺中市西屯區福科路、福順路458巷","lng":120.616,"name":"(停119)福安停車場","available":2,"updateTime":"2020-11-12 15:31:44.0","lat":24.18587},{"total":92,"address":"臺中市西屯區惠來路、市政北七路","lng":120.642136,"name":"惠安停車場","available":0,"updateTime":"2020-11-12 15:31:44.0","lat":24.1637859},{"total":17,"address":"臺中市西屯區長安路二段、中清路65巷101弄(水湳市場旁)","lng":120.666946,"name":"(停68)大福停車場","available":13,"updateTime":"2020-11-12 15:31:44.0","lat":24.1770687},{"total":19,"address":"臺中市西屯區河南路、河南東一街","lng":120.66217,"name":"(停69)河南停車場","available":4,"updateTime":"2020-11-12 15:31:44.0","lat":24.16983},{"total":17,"address":"臺中市西屯區重慶路、甘肅路","lng":120.657356,"name":"(停70)忠義停車場","available":0,"updateTime":"2020-11-12 15:31:44.0","lat":24.16787},{"total":361,"address":"臺中市西屯區東興路3段332號","lng":120.6544,"name":"(細停72)東興立體停車場","available":56,"updateTime":"2020-11-12 15:31:44.0","lat":24.1564255},{"total":37,"address":"臺中市西屯區弘孝路、河南路二段301巷","lng":120.648956,"name":"(停85)弘孝停車場","available":0,"updateTime":"2020-11-12 15:31:44.0","lat":24.17108},{"total":29,"address":"臺中市西屯區四川路、四川路120巷、 何厝市場旁","lng":120.653458,"name":"(停89)何厝停車場","available":4,"updateTime":"2020-11-12 15:31:44.0","lat":24.1626339},{"total":52,"address":"臺中市西屯區大容東街與大容東一街口","lng":120.647804,"name":"(停91)大墩停車場","available":0,"updateTime":"2020-11-12 15:31:44.0","lat":24.1562271},{"total":16,"address":"臺中市西屯區中清西二街、中清西二街92巷口","lng":120.665642,"name":"(住2)大鵬停車場","available":3,"updateTime":"2020-11-12 15:31:44.0","lat":24.17573},{"total":22,"address":"臺中市西屯區太原路一段、忠義街、大弘三街","lng":120.659279,"name":"太原(停127)停車場","available":0,"updateTime":"2020-11-12 15:31:44.0","lat":24.16137},{"total":14,"address":"臺中市西屯區上安路103號","lng":120.639885,"name":"(停88)上安停車場","available":0,"updateTime":"2020-11-12 15:31:44.0","lat":24.1711826},{"total":108,"address":"臺中市西屯區市政北六路、河南路三段","lng":120.640144,"name":"(廣停3)惠順停車場","available":31,"updateTime":"2020-11-12 15:31:44.0","lat":24.1641617},{"total":171,"address":"臺中市西屯區市政北六路、河南路三段","lng":120.638329,"name":"(廣兼停4)朝富停車場","available":155,"updateTime":"2020-11-12 15:31:44.0","lat":24.16524},{"total":56,"address":"臺中市西屯區工業區一路2巷、工業區一路","lng":120.614731,"name":"福恩(普濟溪臨時加蓋)停車場","available":24,"updateTime":"2020-11-12 15:31:44.0","lat":24.1825314},{"total":774,"address":"臺中市東區南京路72號","lng":120.690788,"name":"(停)南京立體停車場","available":171,"updateTime":"2020-11-12 15:31:44.0","lat":24.14019},{"total":109,"address":"臺中市東區東英八街、一心街","lng":120.702,"name":"(停17)東英停車場","available":102,"updateTime":"2020-11-12 15:31:44.0","lat":24.1416283},{"total":58,"address":"臺中市東區樂業路、一心街","lng":120.70208,"name":"(停18)一心停車場","available":42,"updateTime":"2020-11-12 15:31:44.0","lat":24.1391869},{"total":195,"address":"臺中市東區東英一街、一心街","lng":120.702309,"name":"(停19)信心停車場","available":0,"updateTime":"2020-11-12 15:31:44.0","lat":24.1345463},{"total":42,"address":"臺中市東區忠孝路、信義街218巷","lng":120.690338,"name":"(停37)忠孝停車場","available":5,"updateTime":"2020-11-12 15:31:44.0","lat":24.1331978},{"total":30,"address":"臺中市南區有恆街147號","lng":120.6772,"name":"(停60)德義停車場","available":11,"updateTime":"2020-11-12 15:31:44.0","lat":24.1281013},{"total":75,"address":"臺中市南區南平路、美村路","lng":120.666031,"name":"(停77)南平停車場","available":42,"updateTime":"2020-11-12 15:31:44.0","lat":24.1239071},{"total":72,"address":"臺中市南區德富路146巷、德吉街","lng":120.654083,"name":"(停80)樹德停車場","available":20,"updateTime":"2020-11-12 15:31:44.0","lat":24.11853},{"total":31,"address":"臺中市南區忠明南路、美村南路","lng":120.667221,"name":"健康公園地下停車場","available":1,"updateTime":"2020-11-12 15:31:44.0","lat":24.1192646},{"total":60,"address":"臺中市南區五權南路","lng":120.669838,"name":"健康公園附設停車場","available":33,"updateTime":"2020-11-12 15:31:44.0","lat":24.12098},{"total":47,"address":"臺中市南區南屯路","lng":120.6583,"name":"崇倫公園附設停車場","available":0,"updateTime":"2020-11-12 15:31:44.0","lat":24.1335258},{"total":24,"address":"臺中市南屯區文昌街、文昌街205巷","lng":120.636093,"name":"(停114)文昌停車場","available":9,"updateTime":"2020-11-12 15:31:44.0","lat":24.13838},{"total":43,"address":"台中市南屯區東興路三段和大墩十二街交叉路口","lng":120.652763,"name":"(停94)大新停車場","available":0,"updateTime":"2020-11-12 15:31:44.0","lat":24.14986},{"total":29,"address":"臺中市南屯區大墩路、大墩五街","lng":120.650238,"name":"(停96)大進停車場","available":3,"updateTime":"2020-11-12 15:31:44.0","lat":24.14187},{"total":58,"address":"臺中市南屯區五權西路、惠中路","lng":120.64035,"name":"(停97)南屯停車場","available":5,"updateTime":"2020-11-12 15:31:44.0","lat":24.14169},{"total":158,"address":"臺中市南屯區向上路二段、河南路四段","lng":120.638962,"name":"(文中38)大墩國中地下停車場","available":10,"updateTime":"2020-11-12 15:31:44.0","lat":24.14589},{"total":303,"address":"臺中市南屯區向上路二段","lng":120.645294,"name":"惠文停車場(廣兼停95)","available":153,"updateTime":"2020-11-12 15:31:44.0","lat":24.1469326},{"total":15,"address":"臺中市南屯區干城街、懷德街","lng":120.63047,"name":"黎明停車場","available":4,"updateTime":"2020-11-12 15:31:44.0","lat":24.1518478},{"total":70,"address":"臺中市烏日區民權街、大同六街","lng":120.627907,"name":"烏日-停八停車場","available":31,"updateTime":"2020-11-12 15:31:44.0","lat":24.11105},{"total":73,"address":"臺中市烏日區興祥街、興祥街42巷口","lng":120.639168,"name":"烏日-停三停車場","available":6,"updateTime":"2020-11-12 15:31:44.0","lat":24.1058846},{"total":84,"address":"臺中市清水區中山路241號旁、光華路","lng":120.574181,"name":"清水-牛罵頭停車場(住4)","available":41,"updateTime":"2020-11-12 15:31:44.0","lat":24.2684383},{"total":141,"address":"臺中市豐原區中山路473巷15號","lng":120.713638,"name":"豐原-富春國小地下停車場(綠8)","available":23,"updateTime":"2020-11-12 15:31:44.0","lat":24.2530365},{"total":254,"address":"臺中市豐原區陽明街36號","lng":120.721367,"name":"豐原-陽明大樓地下停車場(機25)","available":37,"updateTime":"2020-11-12 15:31:44.0","lat":24.2468071},{"total":130,"address":"臺中市豐原區中興路136號(臺中市政府衛生局斜對面)","lng":120.714523,"name":"豐原-廣兼停2平面停車場","available":41,"updateTime":"2020-11-12 15:31:44.0","lat":24.247757},{"total":27,"address":"臺中市豐原區圓環北路1段319號旁","lng":120.718956,"name":"豐原-環北站停車場(廣兼停8)","available":13,"updateTime":"2020-11-12 15:31:44.0","lat":24.2583256},{"total":52,"address":"臺中市北屯區天祥街、天祥街13巷","lng":120.694588,"name":"(細停175)天祥停車場","available":18,"updateTime":"2020-11-12 15:31:44.0","lat":24.1614914},{"total":178,"address":"臺中市東區旱溪街、環中東路四段","lng":120.709381,"name":"旱溪停車場(停15)","available":120,"updateTime":"2020-11-12 15:31:44.0","lat":24.14085},{"total":393,"address":"臺中市西屯區西平里福星北路18號(福星路、福星北路口)","lng":120.645096,"name":"(細停3-1)星享道公有停車場","available":288,"updateTime":"2020-11-12 15:31:44.0","lat":24.18291},{"total":78,"address":"臺中市北區五義街","lng":120.683365,"name":"中山堂停車場","available":0,"updateTime":"2020-11-12 15:31:44.0","lat":24.1552715},{"total":18,"address":"臺中市南區國光路、建成路","lng":120.679451,"name":"城隍停車場(細停59)","available":12,"updateTime":"2020-11-12 15:31:44.0","lat":24.12734},{"total":73,"address":"臺中市南屯區精科五路、精科北路","lng":120.596443,"name":"臺中市精密機械科技創新園區(停一)錢嶺停車場","available":18,"updateTime":"2020-11-12 15:31:44.0","lat":24.15252},{"total":188,"address":"臺中市南屯區嶺東路、嶺東路95巷","lng":120.611427,"name":"臺中市精密機械科技創新園區(停三)山仔腳停車場","available":120,"updateTime":"2020-11-12 15:31:44.0","lat":24.14904},{"total":172,"address":"臺中市西屯區何安二巷、銀聯一巷","lng":120.657623,"name":"銀聯三村平面停車場(住2)","available":37,"updateTime":"2020-11-12 15:31:44.0","lat":24.1660938},{"total":131,"address":"臺中市東區十甲路、東英十一街","lng":120.711212,"name":"三賢停車場(停14)","available":41,"updateTime":"2020-11-12 15:31:44.0","lat":24.14402},{"total":123,"address":"臺中市西屯區青海南街，近黎明路三段","lng":120.635963,"name":"(廣兼停98)朝馬停車場","available":92,"updateTime":"2020-11-12 15:31:44.0","lat":24.17288},{"total":73,"address":"臺中市西屯區福玄路、安和西路","lng":120.621605,"name":"(廣兼停120)協和停車場","available":36,"updateTime":"2020-11-12 15:31:44.0","lat":24.177557},{"total":88,"address":"臺中市西屯區福順路、福裕路、福元路","lng":120.627243,"name":"(廣兼停120-1)福順停車場","available":73,"updateTime":"2020-11-12 15:31:44.0","lat":24.17986},{"total":130,"address":"臺中市南屯區文心南五路三段、向上路三段、龍富十七路","lng":120.628838,"name":"(廣兼停112)新厝停車場","available":114,"updateTime":"2020-11-12 15:31:44.0","lat":24.1457462},{"total":899,"address":"臺中市西屯區文心路與惠中路間","lng":120.647163,"name":"(公2-2)市政公園地下停車場","available":105,"updateTime":"2020-11-12 15:31:44.0","lat":24.15938},{"total":29,"address":"臺中市西區自立街、自立街25巷","lng":120.671761,"name":"自立停車場","available":10,"updateTime":"2020-11-12 15:31:44.0","lat":24.1393623},{"total":9,"address":"臺中市南區國光路、復興路","lng":120.676331,"name":"(停170)復興停車場","available":5,"updateTime":"2020-11-12 15:31:44.0","lat":24.1319466},{"total":158,"address":"臺中市北區梅亭街、華中街","lng":120.672409,"name":"健行停車場","available":13,"updateTime":"2020-11-12 15:31:44.0","lat":24.1605644},{"total":34,"address":"臺中市南屯區建功路、春安三街","lng":120.607666,"name":"(細廣停一)春安停車場","available":34,"updateTime":"2020-11-12 15:31:44.0","lat":24.1356964},{"total":60,"address":"臺中市南屯區忠勇路19巷(彩虹眷村旁)","lng":120.610146,"name":"(細停1)馬祖停車場","available":38,"updateTime":"2020-11-12 15:31:44.0","lat":24.1340847},{"total":210,"address":"臺中市太平區中山路二段","lng":120.732979,"name":"坪林森林公園附設停車場及其環園道路附設停車空間","available":195,"updateTime":"2020-11-12 15:31:44.0","lat":24.1481323},{"total":131,"address":"臺中市南區文心南路、建國北路","lng":120.649635,"name":"大慶停車場","available":46,"updateTime":"2020-11-12 15:31:44.0","lat":24.12055},{"total":54,"address":"臺中市北屯區松竹路、松竹二路","lng":120.71759,"name":"(廣兼停42)松榮停車場","available":28,"updateTime":"2020-11-12 15:31:44.0","lat":24.18184},{"total":430,"address":"臺中市西屯區市政北一路、惠來路","lng":120.639458,"name":"惠來停車場","available":71,"updateTime":"2020-11-12 15:31:44.0","lat":24.15989},{"total":0,"address":"臺中市南區中山醫學大學對面(建國北路側)","lng":120.651749,"name":"建國北停車場","available":0,"updateTime":"2020-11-12 15:31:44.0","lat":24.1214828},{"total":812,"address":"臺中市東區建成路500號","lng":120.693352,"name":"建國市場附屬停車場","available":629,"updateTime":"2020-11-12 15:31:44.0","lat":24.1336784},{"total":41,"address":"臺中市北屯區松竹路、軍功路","lng":120.720062,"name":"(廣停1)軍功停車場","available":16,"updateTime":"2020-11-12 15:31:44.0","lat":24.1819},{"total":89,"address":"臺中市南區復興路三段、復興園路","lng":120.67144,"name":"國資圖停車場","available":46,"updateTime":"2020-11-12 15:31:44.0","lat":24.1289272},{"total":43,"address":"臺中市西屯區西屯路2段與西屯路2段208巷旁","lng":120.6494,"name":"細停2停車場","available":17,"updateTime":"2020-11-12 15:31:44.0","lat":24.16872},{"total":149,"address":"臺中市東區建國路、八德街","lng":120.687111,"name":"舊建國市場臨時平面停車場","available":91,"updateTime":"2020-11-12 15:31:44.0","lat":24.13871},{"total":156,"address":"臺中市西屯區順平路、中平路","lng":120.6629,"name":"下石碑停車場","available":52,"updateTime":"2020-11-12 15:31:44.0","lat":24.17661},{"total":326,"address":"臺中市南屯區永春東七路、大墩十一街(臺中花市旁)","lng":120.63179,"name":"三塊厝停車場","available":279,"updateTime":"2020-11-12 15:31:44.0","lat":24.14612},{"total":149,"address":"臺中市南屯區惠文路(近大墩七街、向上路)","lng":120.643631,"name":"文心森林公園附屬停車場","available":71,"updateTime":"2020-11-12 15:31:44.0","lat":24.1453457},{"total":93,"address":"臺中市西屯區臺灣大道三段301號旁空地","lng":120.6439,"name":"私人-惠國94停車場","available":65,"updateTime":"2020-11-12 15:31:44.0","lat":24.1655178},{"total":15,"address":"臺中市大里區永隆路、德芳路二段","lng":120.67804,"name":"德芳興停車場","available":0,"updateTime":"2020-11-12 15:31:44.0","lat":24.1041985},{"total":63,"address":"臺中市北區柳川西路、太平路(東興市場旁)","lng":120.6791,"name":"(細停164)東欣停車場","available":28,"updateTime":"2020-11-12 15:31:44.0","lat":24.153307},{"total":156,"address":"臺中市西區精誠二十三街65號","lng":120.656525,"name":"(停73)大益停車場","available":32,"updateTime":"2020-11-12 15:31:44.0","lat":24.1461926},{"total":1216,"address":"臺中市北屯區崇德路三段831號","lng":120.685692,"name":"私人-臺中洲際棒球場立體停車場","available":0,"updateTime":"2020-11-12 15:31:44.0","lat":24.197813},{"total":150,"address":"臺中市豐原區大明路154號旁","lng":120.708412,"name":"豐原-大明路中興停車場","available":150,"updateTime":"2020-11-12 15:31:44.0","lat":24.2420673},{"total":269,"address":"臺中市北區館前路1號","lng":120.664925,"name":"國立自然科學博物館停車場(博館路)","available":4,"updateTime":"2020-11-12 15:31:44.0","lat":24.1568584},{"total":100,"address":"臺中市北區忠明路501巷","lng":120.672684,"name":"忠明路臨時停車場","available":17,"updateTime":"2020-11-12 15:31:44.0","lat":24.1640072},{"total":127,"address":"臺中市西區五權西路一段2號","lng":120.662132,"name":"國美館美術園區停車場","available":65,"updateTime":"2020-11-12 15:31:44.0","lat":24.14021},{"total":178,"address":"臺中市北區館前路1號","lng":120.667915,"name":"國立自然科學博物館停車場(植物園)","available":48,"updateTime":"2020-11-12 15:31:44.0","lat":24.157198},{"total":168,"address":"臺中市北區館前路1號","lng":120.667313,"name":"國立自然科學博物館第三停車場(西屯路)","available":117,"updateTime":"2020-11-12 15:31:44.0","lat":24.1574574},{"total":164,"address":"臺中市豐原區育英路150號","lng":120.714607,"name":"育英路立體停車場","available":73,"updateTime":"2020-11-12 15:31:44.0","lat":24.2406769}]